{
  "type": "FeatureCollection",
  "name": "Airports",
  "crs": {
    "type": "name",
    "properties": { "name": "urn:ogc:def:crs:OGC:1.3:CRS84" }
  },
  "features": [
    {
      "type": "Feature",
      "airporttype": "Domestic",
      "properties": {
        "Airport Name": "Darbhanga Airport",
        "IATA": "DBR",
        "ICAO": "VEDH",
        "Airport Type": "Domestic (CE)",
        "Operational": true,
        "State": "Bihar",
        "Latitude": 26.1967856,
        "Longitude": 85.9118892
      },
      "geometry": { "type": "Point", "coordinates": [85.9118892, 26.1967856] }
    },
    {
      "type": "Feature",
      "airporttype": "International",
      "properties": {
        "Airport Name": "Gaya Airport",
        "IATA": "GAY",
        "ICAO": "VEGY",
        "Airport Type": "Customs",
        "Operational": true,
        "State": "Bihar",
        "Latitude": 24.742928,
        "Longitude": 84.9521689
      },
      "geometry": { "type": "Point", "coordinates": [84.9521689, 24.742928] }
    },
    {
      "type": "Feature",
      "airporttype": "Domestic",
      "properties": {
        "Airport Name": "Forbesganj Airport",
        "IATA": null,
        "ICAO": null,
        "Airport Type": "Domestic",
        "Operational": false,
        "State": "Bihar",
        "Latitude": 26.2970291,
        "Longitude": 87.2830426
      },
      "geometry": { "type": "Point", "coordinates": [87.2830426, 26.2970291] }
    },
    {
      "type": "Feature",
      "airporttype": "Domestic",
      "properties": {
        "Airport Name": "Muzaffarpur Airport",
        "IATA": "MZU",
        "ICAO": "VEMZ",
        "Airport Type": "Domestic",
        "Operational": false,
        "State": "Bihar",
        "Latitude": 26.11857484,
        "Longitude": 85.31206513
      },
      "geometry": { "type": "Point", "coordinates": [85.31206513, 26.11857484] }
    },
    {
      "type": "Feature",
      "airporttype": "State/Private",
      "properties": {
        "Airport Name": "Jay Prakash Narayan Airport",
        "IATA": "PAT",
        "ICAO": "VEPT",
        "Airport Type": "Customs",
        "Operational": true,
        "State": "Bihar",
        "Latitude": 25.59246891,
        "Longitude": 85.09205904
      },
      "geometry": { "type": "Point", "coordinates": [85.09205904, 25.59246891] }
    },
    {
      "type": "Feature",
      "airporttype": "State/Private",
      "properties": {
        "Airport Name": "Ambikapur Airport",
        "IATA": null,
        "ICAO": "VEAP",
        "Airport Type": "State/Private",
        "Operational": true,
        "State": "Chhattisgarh",
        "Latitude": 22.994129,
        "Longitude": 83.1932401
      },
      "geometry": { "type": "Point", "coordinates": [83.1932401, 22.994129] }
    },
    {
      "type": "Feature",
      "airporttype": "State/Private",
      "properties": {
        "Airport Name": "Bilaspur Airport",
        "IATA": "PAB",
        "ICAO": "VEBU",
        "Airport Type": "State/Private",
        "Operational": true,
        "State": "Chhattisgarh",
        "Latitude": 21.9893403,
        "Longitude": 82.109965
      },
      "geometry": { "type": "Point", "coordinates": [82.109965, 21.9893403] }
    },
    {
      "type": "Feature",
      "airporttype": "State/Private",
      "properties": {
        "Airport Name": "Jagdalpur Airport",
        "IATA": "JGB",
        "ICAO": "VEJR",
        "Airport Type": "State/Private",
        "Operational": true,
        "State": "Chhattisgarh",
        "Latitude": 19.0738998,
        "Longitude": 82.0363801
      },
      "geometry": { "type": "Point", "coordinates": [82.0363801, 19.0738998] }
    },
    {
      "type": "Feature",
      "airporttype": "International",
      "properties": {
        "Airport Name": "Swami Vivekananda Airport",
        "IATA": "RPR",
        "ICAO": "VARP",
        "Airport Type": "Domestic",
        "Operational": true,
        "State": "Chhattisgarh",
        "Latitude": 21.1826689,
        "Longitude": 81.7399479
      },
      "geometry": { "type": "Point", "coordinates": [81.7399479, 21.1826689] }
    },
    {
      "type": "Feature",
      "airporttype": "International",
      "properties": {
        "Airport Name": "Raigarh Airport",
        "IATA": null,
        "ICAO": "VERH",
        "Airport Type": "State/Private",
        "Operational": true,
        "State": "Chhattisgarh",
        "Latitude": 21.8217237,
        "Longitude": 83.3653352
      },
      "geometry": { "type": "Point", "coordinates": [83.3653352, 21.8217237] }
    }
  ]
}
