[
  {
    "type": "FeatureCollection",
    "name": "Sample_1",
    "crs": {
      "type": "name",
      "properties": { "name": "urn:ogc:def:crs:OGC:1.3:CRS84" }
    },
    "features": [
      {
        "type": "Feature",
        "properties": {
          "Type": "Plot No",
          "POI Name": "A/82",
          "Longitude": 85.845219717500001,
          "image":"https://ik.imagekit.io/xpertdigital/hero.png?updatedAt=1688838596288",
          "image":"https://ik.imagekit.io/xpertdigital/hero.png?updatedAt=1688838596288",
          "Latitude": 20.295114368699998
        },
        "geometry": {
          "type": "Point",
          "coordinates": [85.845219717500001, 20.295114368699998]
        }
      },
      {
        "type": "Feature",
        "properties": {
          "Type": "Plot No",
          "POI Name": "A-63",
          "Longitude": 85.845397658799996,
          "image":"https://ik.imagekit.io/xpertdigital/hero.png?updatedAt=1688838596288",
          "Latitude": 20.295102771
        },
        "geometry": {
          "type": "Point",
          "coordinates": [85.845397658799996, 20.295102771]
        }
      },
      {
        "type": "Feature",
        "properties": {
          "Type": "1",
          "POI Name": "INNODUST TECHSOLUTION PRIVATE LIMITED",
          "Longitude": 85.845633496000005,
          "image":"https://ik.imagekit.io/xpertdigital/hero.png?updatedAt=1688838596288",
          "Latitude": 20.295151775400001
        },
        "geometry": {
          "type": "Point",
          "coordinates": [85.845633496, 20.295151775400001]
        }
      },
      {
        "type": "Feature",
        "properties": {
          "Type": "Plot No",
          "POI Name": "A/64",
          "Longitude": 85.845718168499999,
          "image":"https://ik.imagekit.io/xpertdigital/hero.png?updatedAt=1688838596288",
          "Latitude": 20.295087031400001
        },
        "geometry": {
          "type": "Point",
          "coordinates": [85.845718168499999, 20.295087031400001]
        }
      },
      {
        "type": "Feature",
        "properties": {
          "Type": "1",
          "POI Name": "DP AGENCY",
          "Longitude": 85.845720985100002,
          "image":"https://ik.imagekit.io/xpertdigital/hero.png?updatedAt=1688838596288",
          "Latitude": 20.2950868657
        },
        "geometry": {
          "type": "Point",
          "coordinates": [85.845720985100002, 20.2950868657]
        }
      },
      {
        "type": "Feature",
        "properties": {
          "Type": "1",
          "POI Name": "CLATAPULT",
          "Longitude": 85.845700854900002,
          "image":"https://ik.imagekit.io/xpertdigital/hero.png?updatedAt=1688838596288",
          "Latitude": 20.295115942700001
        },
        "geometry": {
          "type": "Point",
          "coordinates": [85.845700854900002, 20.295115942700001]
        }
      },
      {
        "type": "Feature",
        "properties": {
          "Type": "1",
          "POI Name": "DRV ENTERPRISES PVT.LTD",
          "Longitude": 85.845726038400002,
          "image":"https://ik.imagekit.io/xpertdigital/hero.png?updatedAt=1688838596288",
          "Latitude": 20.2951115521
        },
        "geometry": {
          "type": "Point",
          "coordinates": [85.845726038400002, 20.2951115521]
        }
      },
      {
        "type": "Feature",
        "properties": {
          "Type": "1",
          "POI Name": "THE NEPTUNE GLITZ",
          "Longitude": 85.845727032499994,
          "image":"https://ik.imagekit.io/xpertdigital/hero.png?updatedAt=1688838596288",
          "Latitude": 20.295122569899998
        },
        "geometry": {
          "type": "Point",
          "coordinates": [85.845727032499994, 20.295122569899998]
        }
      },
      {
        "type": "Feature",
        "properties": {
          "Type": "1",
          "POI Name": "SHANTI CLINIC",
          "Longitude": 85.845759505900006,
          "image":"https://ik.imagekit.io/xpertdigital/hero.png?updatedAt=1688838596288",
          "Latitude": 20.295085126
        },
        "geometry": {
          "type": "Point",
          "coordinates": [85.845759505900006, 20.295085126]
        }
      },
      {
        "type": "Feature",
        "properties": {
          "Type": "1",
          "POI Name": "JANAVI INFOTECH",
          "Longitude": 85.8457605,
          "image":"https://ik.imagekit.io/xpertdigital/hero.png?updatedAt=1688838596288",
          "Latitude": 20.2950963923
        },
        "geometry": {
          "type": "Point",
          "coordinates": [85.8457605, 20.2950963923]
        }
      },
      {
        "type": "Feature",
        "properties": {
          "Type": "1",
          "POI Name": "SWAIN REFRIGERATION & ELECTRONICS",
          "Longitude": 85.845786346200001,
          "image":"https://ik.imagekit.io/xpertdigital/hero.png?updatedAt=1688838596288",
          "Latitude": 20.295084794699999
        },
        "geometry": {
          "type": "Point",
          "coordinates": [85.845786346200001, 20.295084794699999]
        }
      },
      {
        "type": "Feature",
        "properties": {
          "Type": "1",
          "POI Name": "SHREEGURU VENTURES PVT. LTD.",
          "Longitude": 85.845937281600001,
          "image":"https://ik.imagekit.io/xpertdigital/hero.png?updatedAt=1688838596288",
          "Latitude": 20.2950833035
        },
        "geometry": {
          "type": "Point",
          "coordinates": [85.845937281600001, 20.2950833035]
        }
      },
      {
        "type": "Feature",
        "properties": {
          "Type": "Plot No",
          "POI Name": "A-65",
          "Longitude": 85.845931648399997,
          "image":"https://ik.imagekit.io/xpertdigital/hero.png?updatedAt=1688838596288",
          "Latitude": 20.295085291700001
        },
        "geometry": {
          "type": "Point",
          "coordinates": [85.845931648399997, 20.295085291700001]
        }
      },
      {
        "type": "Feature",
        "properties": {
          "Type": "1",
          "POI Name": "CHRISTINE'S LADIES BEAUTY PARLOUR",
          "Longitude": 85.846160288099995,
          "image":"https://ik.imagekit.io/xpertdigital/hero.png?updatedAt=1688838596288",
          "Latitude": 20.2950345934
        },
        "geometry": {
          "type": "Point",
          "coordinates": [85.846160288099995, 20.2950345934]
        }
      },
      {
        "type": "Feature",
        "properties": {
          "Type": "1",
          "POI Name": "Kalyan Jewellers\n",
          "Longitude": 85.842558507999996,
          "image":"https://ik.imagekit.io/xpertdigital/hero.png?updatedAt=1688838596288",
          "Latitude": 20.295447350300002
        },
        "geometry": {
          "type": "Point",
          "coordinates": [85.842558508, 20.295447350300002]
        }
      },
      {
        "type": "Feature",
        "properties": {
          "Type": "1",
          "POI Name": "ELEGANCE ESTCON PVT.LTD",
          "Longitude": 85.846356454299993,
          "image":"https://ik.imagekit.io/xpertdigital/hero.png?updatedAt=1688838596288",
          "Latitude": 20.294983563599999
        },
        "geometry": {
          "type": "Point",
          "coordinates": [85.846356454299993, 20.294983563599999]
        }
      }
    ]
  }
]
